{
    "type": "FeatureCollection",
    "features": [
        {
            "type": "Feature",
            "geometry": {
                "type": "Point",
                "coordinates": [
                    -40.32120364743761,
                    -20.39157029888938
                ]
            },
            "properties": {
                "name": "T. Itaparica",
                "id": "01"
            }
        },
        {
            "type": "Feature",
            "geometry": {
                "type": "Point",
                "coordinates": [
                    -40.29474632951932,
                    -20.34294652643772
                ]
            },
            "properties": {
                "name": "T. Vila Velha",
                "id": "02"
            }
        },
        {
            "type": "Feature",
            "geometry": {
                "type": "Point",
                "coordinates": [
                    -40.27004522695863,
                    -20.23058305147726
                ]
            },
            "properties": {
                "name": "T. Carapina",
                "id": "03"
            }
        },
        {
            "type": "Feature",
            "geometry": {
                "type": "Point",
                "coordinates": [
                    -40.25535046754877,
                    -20.1936629843442
                ]
            },
            "properties": {
                "name": "T. Laranjeiras",
                "id": "04"
            }
        },
        {
            "type": "Feature",
            "geometry": {
                "type": "Point",
                "coordinates": [
                    -40.19591229237463,
                    -20.1593434223342
                ]
            },
            "properties": {
                "name": "T. Jacaraípe",
                "id": "05"
            }
        },
        {
            "type": "Feature",
            "geometry": {
                "type": "Point",
                "coordinates": [
                    -40.3531238771719,
                    -20.33010460602798
                ]
            },
            "properties": {
                "name": "T. São Torquato",
                "id": "06"
            }
        },
        {
            "type": "Feature",
            "geometry": {
                "type": "Point",
                "coordinates": [
                    -40.35915715535049,
                    -20.33378456996435
                ]
            },
            "properties": {
                "name": "T. Jardim América",
                "id": "07"
            }
        },
        {
            "type": "Feature",
            "geometry": {
                "type": "Point",
                "coordinates": [
                    -40.39637229458069,
                    -20.34625171320852
                ]
            },
            "properties": {
                "name": "T. Campo Grande",
                "id": "08"
            }
        },
        {
            "type": "Feature",
            "geometry": {
                "type": "Point",
                "coordinates": [
                    -40.31454611030445,
                    -20.34614069211273
                ]
            },
            "properties": {
                "name": "T. Ibes",
                "id": "09"
            }
        },
        {
            "type": "Feature",
            "geometry": {
                "type": "Point",
                "coordinates": [
                    -40.37254059829001,
                    -20.32369122505902
                ]
            },
            "properties": {
                "name": "T. Itacibá",
                "id": "10"
            }
        }
    ]
}
